let pr = {
"type": "FeatureCollection",
"name": "pr",
"crs": { "type": "name", "properties": { "name": "urn:ogc:def:crs:OGC:1.3:CRS84" } },
"features": [
{ "type": "Feature", "properties": { "名称": "BIZcomfort四ツ木", "住所": "東京都葛飾区四つ木1-15-4", "緯度": 35.73293852, "経度": 139.8353267, "urltag": "yotsugi" }, "geometry": { "type": "Point", "coordinates": [ 139.8353267, 35.73293852 ] } },
{ "type": "Feature", "properties": { "名称": "BIZcomfort日暮里", "住所": "東京都荒川区東日暮里5-50-5 アートホテル日暮里ラングウッド3F", "緯度": 35.72797139, "経度": 139.7728859, "urltag": "nippori" }, "geometry": { "type": "Point", "coordinates": [ 139.7728859, 35.72797139 ] } },
{ "type": "Feature", "properties": { "名称": "BIZcomfort西葛西", "住所": "東京都江戸川区西葛西6-13-1 西葛西たかみビル5F", "緯度": 35.66311468, "経度": 139.8589315, "urltag": "nishikasai" }, "geometry": { "type": "Point", "coordinates": [ 139.858931500000011, 35.66311468 ] } },
{ "type": "Feature", "properties": { "名称": "BIZcomfort日本橋茅場町", "住所": "東京都中央区日本橋茅場町2-8-1 BRICK GATE 茅場町 B1F/2F/3F", "緯度": 35.67939334, "経度": 139.7790191, "urltag": "nihonbashi-kayabacho" }, "geometry": { "type": "Point", "coordinates": [ 139.7790191, 35.67939334 ] } },
{ "type": "Feature", "properties": { "名称": "BIZcomfort錦糸町", "住所": "東京都墨田区江東橋4-27-14　楽天地ビル3F", "緯度": 35.69603375, "経度": 139.8155972, "urltag": "kinshicho" }, "geometry": { "type": "Point", "coordinates": [ 139.815597200000013, 35.69603375 ] } },
{ "type": "Feature", "properties": { "名称": "BIZcomfort品川Skyway", "住所": "東京都港区港南2-17-1　京王品川ビル2F", "緯度": 35.62462484, "経度": 139.7393615, "urltag": "shinagawa-skyway" }, "geometry": { "type": "Point", "coordinates": [ 139.7393615, 35.62462484 ] } },
{ "type": "Feature", "properties": { "名称": "BIZcomfort荏原中延", "住所": "東京都品川区東中延1-9-13　ザ・パークハビオ荏原中延駅前1F", "緯度": 35.60942424, "経度": 139.7119745, "urltag": "ebaranakanobu" }, "geometry": { "type": "Point", "coordinates": [ 139.7119745, 35.60942424 ] } },
{ "type": "Feature", "properties": { "名称": "BIZcomfort秋葉原", "住所": "東京都千代田区神田岩本町15-1 CYK神田岩本町B1F", "緯度": 35.69675537, "経度": 139.7748496, "urltag": "akihabara" }, "geometry": { "type": "Point", "coordinates": [ 139.77484960000001, 35.69675537 ] } },
{ "type": "Feature", "properties": { "名称": "BIZcomfort中野南", "住所": "東京都中野区中野2丁目19-2　リードシー中野ビル　3F", "緯度": 35.70297709, "経度": 139.6677691, "urltag": "nakanominami" }, "geometry": { "type": "Point", "coordinates": [ 139.667769099999987, 35.70297709 ] } },
{ "type": "Feature", "properties": { "名称": "BIZcomfort町田ANNEX", "住所": "東京都町田市原町田4丁目11-14コロンブスビル3階", "緯度": 35.5424989, "経度": 139.4487005, "urltag": "machida-annex" }, "geometry": { "type": "Point", "coordinates": [ 139.4487005, 35.5424989 ] } },
{ "type": "Feature", "properties": { "名称": "KEISEI×BIZcomfort渋谷南", "住所": "東京都渋谷区渋谷3-2-4帝都青山第２ビル4F･5F", "緯度": 35.65701771, "経度": 139.7073437, "urltag": "shibuyaminami" }, "geometry": { "type": "Point", "coordinates": [ 139.7073437, 35.65701771 ] } },
{ "type": "Feature", "properties": { "名称": "BIZcomfort京王八王子", "住所": "東京都八王子市新町2-5 コスモリード八王子（旧：ガーデンコート西野）1階・2階", "緯度": 35.66059372, "経度": 139.3411511, "urltag": "keiohachioji" }, "geometry": { "type": "Point", "coordinates": [ 139.3411511, 35.66059372 ] } },
{ "type": "Feature", "properties": { "名称": "BIZcomfort目黒", "住所": "東京都品川区上⼤崎3-5-2 リードシー目黒イーストビル5・6階", "緯度": 35.63419792, "経度": 139.719277, "urltag": "meguro" }, "geometry": { "type": "Point", "coordinates": [ 139.719277, 35.63419792 ] } },
{ "type": "Feature", "properties": { "名称": "BIZcomfort西新井", "住所": "東京都足立区梅島3-33-6 エンブレム西新井2F・3F", "緯度": 35.77817569, "経度": 139.7913172, "urltag": "nishiarai" }, "geometry": { "type": "Point", "coordinates": [ 139.7913172, 35.77817569 ] } },
{ "type": "Feature", "properties": { "名称": "BIZcomfort吉祥寺", "住所": "東京都武蔵野市吉祥寺本町1丁目13番2号シラカバビル5階", "緯度": 35.70484082, "経度": 139.5806142, "urltag": "kichijoji" }, "geometry": { "type": "Point", "coordinates": [ 139.580614200000014, 35.70484082 ] } },
{ "type": "Feature", "properties": { "名称": "BIZcomfort ザ ロイヤルパークホテル アイコニック 東京汐留", "住所": "東京都港区東新橋1-6-3　ザ ロイヤルパークホテル アイコニック 東京汐留24F", "緯度": 35.66418373, "経度": 139.760516, "urltag": "tokyoshiodome" }, "geometry": { "type": "Point", "coordinates": [ 139.760516, 35.66418373 ] } },
{ "type": "Feature", "properties": { "名称": "KEISEI×BIZcomfort青砥駅前", "住所": "東京都葛飾区青戸3-37-15 京成青戸ビル3F", "緯度": 35.74594624, "経度": 139.8559042, "urltag": "aotoekimae" }, "geometry": { "type": "Point", "coordinates": [ 139.8559042, 35.74594624 ] } },
{ "type": "Feature", "properties": { "名称": "BIZcomfort金町", "住所": "東京都葛飾区東金町1-45-12　ASビル", "緯度": 35.77005169, "経度": 139.8726482, "urltag": "kanamachi" }, "geometry": { "type": "Point", "coordinates": [ 139.872648199999986, 35.77005169 ] } },
{ "type": "Feature", "properties": { "名称": "BIZcomfort三鷹", "住所": "東京都三鷹市下連雀3-35-1 N・E・O CITY MITAKA 6F", "緯度": 35.70188654, "経度": 139.5606498, "urltag": "mitaka" }, "geometry": { "type": "Point", "coordinates": [ 139.5606498, 35.70188654 ] } },
{ "type": "Feature", "properties": { "名称": "BIZcomfort池袋西口", "住所": "東京都豊島区池袋2-36-1　INFINITY IKEBUKURO 6F", "緯度": 35.73319202, "経度": 139.7076245, "urltag": "ikebukuronishiguchi" }, "geometry": { "type": "Point", "coordinates": [ 139.7076245, 35.73319202 ] } },
{ "type": "Feature", "properties": { "名称": "BIZcomfort池袋", "住所": "東京都豊島区西池袋2丁目36-10 ACN池袋ビル5F", "緯度": 35.72826107, "経度": 139.7063977, "urltag": "ikebukuro" }, "geometry": { "type": "Point", "coordinates": [ 139.7063977, 35.72826107 ] } },
{ "type": "Feature", "properties": { "名称": "BIZcomfort東池袋", "住所": "東京都豊島区東池袋5-7-3 東池袋五丁目ビル2F", "緯度": 35.724618, "経度": 139.7216175, "urltag": "higashiikebukuro" }, "geometry": { "type": "Point", "coordinates": [ 139.7216175, 35.724618 ] } },
{ "type": "Feature", "properties": { "名称": "BIZcomfort池袋南口", "住所": "東京都豊島区南池袋2-8-1　角田ビル3F", "緯度": 35.72484157, "経度": 139.7149202, "urltag": "ikebukurominamiguchi" }, "geometry": { "type": "Point", "coordinates": [ 139.7149202, 35.72484157 ] } },
{ "type": "Feature", "properties": { "名称": "BIZcomfort田町", "住所": "東京都港区芝5-16-14　三田ノックスビル3F・4F", "緯度": 35.64858514, "経度": 139.7456982, "urltag": "tamachi" }, "geometry": { "type": "Point", "coordinates": [ 139.7456982, 35.64858514 ] } },
{ "type": "Feature", "properties": { "名称": "BIZcomfort五反田", "住所": "東京都品川区西五反田2-14-13　ニックハイム五反田2階", "緯度": 35.6265135, "経度": 139.7198246, "urltag": "gotanda" }, "geometry": { "type": "Point", "coordinates": [ 139.71982460000001, 35.6265135 ] } },
{ "type": "Feature", "properties": { "名称": "BIZcomfort品川御殿山", "住所": "東京都品川区北品川5-12-4　リードシー御殿山ビル", "緯度": 35.62317256, "経度": 139.734234, "urltag": "gotenyama" }, "geometry": { "type": "Point", "coordinates": [ 139.734234, 35.62317256 ] } },
{ "type": "Feature", "properties": { "名称": "BIZcomfort西日暮里", "住所": "東京都荒川区西日暮里6-37-1", "緯度": 35.73501537, "経度": 139.7702664, "urltag": "nishinippori" }, "geometry": { "type": "Point", "coordinates": [ 139.7702664, 35.73501537 ] } },
{ "type": "Feature", "properties": { "名称": "BIZcomfort品川大井町", "住所": "東京都品川区南品川2-2-5　リードシー南品川ビル2F", "緯度": 35.61192827, "経度": 139.7421366, "urltag": "shinagawa-oimachi" }, "geometry": { "type": "Point", "coordinates": [ 139.7421366, 35.61192827 ] } },
{ "type": "Feature", "properties": { "名称": "BIZcomfort文京白山", "住所": "東京都文京区白山1-13-7　アクア白山ビル7F", "緯度": 35.71699387, "経度": 139.7521151, "urltag": "bunkyohakusan" }, "geometry": { "type": "Point", "coordinates": [ 139.7521151, 35.71699387 ] } },
{ "type": "Feature", "properties": { "名称": "BIZcomfort浅草橋", "住所": "東京都台東区台東1丁目38−9 イトーピア清洲橋通ビル 5F", "緯度": 35.70192917, "経度": 139.7806346, "urltag": "asakusabashi" }, "geometry": { "type": "Point", "coordinates": [ 139.780634600000013, 35.70192917 ] } },
{ "type": "Feature", "properties": { "名称": "BIZcomfort八王子", "住所": "\t東京都八王子市東町12-8長澤ビル4F/5F", "緯度": 35.65821586, "経度": 139.3379051, "urltag": "hachioji" }, "geometry": { "type": "Point", "coordinates": [ 139.3379051, 35.65821586 ] } },
{ "type": "Feature", "properties": { "名称": "BIZcomfort東新宿", "住所": "東京都新宿区新宿6丁目29番11号　新宿イーストクロスタワー10F", "緯度": 35.69769345, "経度": 139.7077684, "urltag": "higashi-shinjuku" }, "geometry": { "type": "Point", "coordinates": [ 139.7077684, 35.69769345 ] } },
{ "type": "Feature", "properties": { "名称": "BIZcomfort江戸川瑞江", "住所": "東京都江戸川区瑞江2-5-3 グレイス瑞江2F", "緯度": 35.69389638, "経度": 139.8972252, "urltag": "edogawamizue" }, "geometry": { "type": "Point", "coordinates": [ 139.8972252, 35.69389638 ] } },
{ "type": "Feature", "properties": { "名称": "BIZcomfort早稲田", "住所": "東京都新宿区早稲田町12-5 ニュー早稲田ビル5F", "緯度": 35.70553032, "経度": 139.7226468, "urltag": "waseda" }, "geometry": { "type": "Point", "coordinates": [ 139.7226468, 35.70553032 ] } },
{ "type": "Feature", "properties": { "名称": "BIZcomfort神楽坂天神", "住所": "東京都新宿区天神町7番地11", "緯度": 35.70486175, "経度": 139.7314292, "urltag": "kagurazaka" }, "geometry": { "type": "Point", "coordinates": [ 139.7314292, 35.70486175 ] } },
{ "type": "Feature", "properties": { "名称": "BIZcomfort代々木", "住所": "東京都渋谷区代々木1-43-11", "緯度": 35.68254309, "経度": 139.6991193, "urltag": "yoyogi" }, "geometry": { "type": "Point", "coordinates": [ 139.6991193, 35.68254309 ] } },
{ "type": "Feature", "properties": { "名称": "BIZcomfort町田", "住所": "東京都町田市中町1-2-5 SHELL MIYAKO V 3F", "緯度": 35.54637344, "経度": 139.4453669, "urltag": "machida" }, "geometry": { "type": "Point", "coordinates": [ 139.44536690000001, 35.54637344 ] } },
{ "type": "Feature", "properties": { "名称": "BIZcomfort御茶ノ水", "住所": "東京都文京区本郷3-4-3 ヒルズ884 お茶ノ水ビル 5F", "緯度": 35.70348207, "経度": 139.7633847, "urltag": "ochanomizu" }, "geometry": { "type": "Point", "coordinates": [ 139.763384699999989, 35.70348207 ] } },
{ "type": "Feature", "properties": { "名称": "BIZcomfort南町田（グランベリーパーク）", "住所": "東京都町田市鶴間3丁目-4-1　グランベリーパーク セントラルコート 3F L302", "緯度": 35.50910178, "経度": 139.4707794, "urltag": "minami-machida" }, "geometry": { "type": "Point", "coordinates": [ 139.4707794, 35.50910178 ] } },
{ "type": "Feature", "properties": { "名称": "BIZcomfort東五反田", "住所": "東京都品川区東五反田5-21-15 メタリオンOSビル3階", "緯度": 35.62994186, "経度": 139.7210406, "urltag": "higashigotanda" }, "geometry": { "type": "Point", "coordinates": [ 139.7210406, 35.62994186 ] } },
{ "type": "Feature", "properties": { "名称": "BIZcomfort曳舟", "住所": "東京都墨田区京島1-8-8", "緯度": 35.71615922, "経度": 139.8178692, "urltag": "hikifune" }, "geometry": { "type": "Point", "coordinates": [ 139.8178692, 35.71615922 ] } },
{ "type": "Feature", "properties": { "名称": "BIZcomfort亀戸南", "住所": "東京都江東区亀戸7ｰ44ｰ2", "緯度": 35.69615953, "経度": 139.834258, "urltag": "kameidominami" }, "geometry": { "type": "Point", "coordinates": [ 139.834258, 35.69615953 ] } },
{ "type": "Feature", "properties": { "名称": "BIZcomfort大森山王", "住所": "東京都大田区山王2-5-6　SANNO BRIDGE", "緯度": 35.59051161, "経度": 139.7275656, "urltag": "omorisanno" }, "geometry": { "type": "Point", "coordinates": [ 139.7275656, 35.59051161 ] } },
{ "type": "Feature", "properties": { "名称": "BIZcomfort日本橋新川", "住所": "東京都中央区新川2-21-10　リードシー八丁堀ビル2F・3F", "緯度": 35.67345456, "経度": 139.7821628, "urltag": "nihonbashishinkawa" }, "geometry": { "type": "Point", "coordinates": [ 139.7821628, 35.67345456 ] } },
{ "type": "Feature", "properties": { "名称": "BIZcomfort日本橋人形町", "住所": "東京都中央区日本橋富沢町4-10　京成日本橋富沢町ビル2F・3F・7F", "緯度": 35.68799965, "経度": 139.7830449, "urltag": "nihonbashi-ningyocho" }, "geometry": { "type": "Point", "coordinates": [ 139.7830449, 35.68799965 ] } },
{ "type": "Feature", "properties": { "名称": "BIZcomfort葛飾青砥", "住所": "東京都葛飾区青戸3-31-4　磯太郎ビル2F", "緯度": 35.74611363, "経度": 139.8543492, "urltag": "katsushikaaoto" }, "geometry": { "type": "Point", "coordinates": [ 139.8543492, 35.74611363 ] } },
{ "type": "Feature", "properties": { "名称": "BIZcomfort蒲田", "住所": "東京都大田区蒲田5-21-13ペガサスステーションプラザ蒲田B2F", "緯度": 35.56199914, "経度": 139.7190923, "urltag": "kamata" }, "geometry": { "type": "Point", "coordinates": [ 139.7190923, 35.56199914 ] } },
{ "type": "Feature", "properties": { "名称": "BIZcomfort中板橋", "住所": "東京都板橋区弥生町33-3　西野ビル5F", "緯度": 35.75554611, "経度": 139.6952912, "urltag": "nakaitabashi" }, "geometry": { "type": "Point", "coordinates": [ 139.695291200000014, 35.75554611 ] } },
{ "type": "Feature", "properties": { "名称": "BIZcomfort水道橋", "住所": "東京都千代田区神田三崎町2-17-8　ドメス水道橋 2F", "緯度": 35.70139807, "経度": 139.753322, "urltag": "suidobashi" }, "geometry": { "type": "Point", "coordinates": [ 139.753322, 35.70139807 ] } },
{ "type": "Feature", "properties": { "名称": "BIZcomfort門前仲町", "住所": "東京都江東区富岡2-11-18　リードシー門前仲町4階", "緯度": 35.66996178, "経度": 139.8014571, "urltag": "monzennakacho" }, "geometry": { "type": "Point", "coordinates": [ 139.8014571, 35.66996178 ] } },
{ "type": "Feature", "properties": { "名称": "BIZcomfort日本橋小網町", "住所": "東京都中央区日本橋小網町11-5　ACN日本橋小網町ビル8F", "緯度": 35.68277841, "経度": 139.7812661, "urltag": "nihonbashikoamicho" }, "geometry": { "type": "Point", "coordinates": [ 139.781266100000011, 35.68277841 ] } },
{ "type": "Feature", "properties": { "名称": "BIZcomfort神保町", "住所": "東京都千代田区神田神保町3-11-1 安田神保町マンション", "緯度": 35.69539622, "経度": 139.754544, "urltag": "jinbocho" }, "geometry": { "type": "Point", "coordinates": [ 139.754544, 35.69539622 ] } },
{ "type": "Feature", "properties": { "名称": "Connect-Lounge神田", "住所": "東京都千代田区神田多町2-1　神田東山ビル7F/8F", "緯度": 35.69301283, "経度": 139.7695521, "urltag": "kanda" }, "geometry": { "type": "Point", "coordinates": [ 139.7695521, 35.69301283 ] } },
{ "type": "Feature", "properties": { "名称": "BIZcomfort秋葉原岩本町", "住所": "東京都千代田区岩本町3-8-8 中和秋葉原ビル", "緯度": 35.69641461, "経度": 139.7772993, "urltag": "akihabara-iwamotocho" }, "geometry": { "type": "Point", "coordinates": [ 139.77729930000001, 35.69641461 ] } },
{ "type": "Feature", "properties": { "名称": "BIZcomfort東十条", "住所": "東京都北区中十条3-35-1　桑沢ビル5F", "緯度": 35.76492987, "経度": 139.7256883, "urltag": "higashijujo" }, "geometry": { "type": "Point", "coordinates": [ 139.7256883, 35.76492987 ] } },
{ "type": "Feature", "properties": { "名称": "BIZcomfort駒込", "住所": "東京都豊島区駒込2丁目3-3　駒込北口ビル3F", "緯度": 35.73745635, "経度": 139.7465695, "urltag": "komagome" }, "geometry": { "type": "Point", "coordinates": [ 139.7465695, 35.73745635 ] } },
{ "type": "Feature", "properties": { "名称": "BIZcomfort本郷", "住所": "東京都文京区本郷3丁目38−10 さかえビル2F", "緯度": 35.70742122, "経度": 139.7628583, "urltag": "hongo" }, "geometry": { "type": "Point", "coordinates": [ 139.7628583, 35.70742122 ] } },
{ "type": "Feature", "properties": { "名称": "BIZcomfort亀戸", "住所": "東京都江東区亀戸5-6-21 UIW9BLDG 2F", "緯度": 35.69829705, "経度": 139.8276505, "urltag": "kameido" }, "geometry": { "type": "Point", "coordinates": [ 139.8276505, 35.69829705 ] } },
{ "type": "Feature", "properties": { "名称": "BIZcomfort大塚", "住所": "東京都豊島区北大塚1-19-12 コルティス大塚 5F/6F", "緯度": 35.7331971, "経度": 139.7305904, "urltag": "otsuka" }, "geometry": { "type": "Point", "coordinates": [ 139.730590400000011, 35.7331971 ] } },
{ "type": "Feature", "properties": { "名称": "MID POINT大塚（提携拠点）", "住所": "東京都豊島区南大塚2丁目38-1", "緯度": 35.72893786, "経度": 139.7314299, "urltag": "midpoint-otsuka" }, "geometry": { "type": "Point", "coordinates": [ 139.7314299, 35.72893786 ] } },
{ "type": "Feature", "properties": { "名称": "MID POINT大森（提携拠点）", "住所": "東京都大田区山王2-5-13　大森北口ビル5F", "緯度": 35.58969264, "経度": 139.7276858, "urltag": "midpoint-omori" }, "geometry": { "type": "Point", "coordinates": [ 139.727685799999989, 35.58969264 ] } },
{ "type": "Feature", "properties": { "名称": "シェアショールーム ニュー新橋コワーキング（提携拠点）", "住所": "東京都港区新橋2-16-1 ニュー新橋ビル305C", "緯度": 35.66634931, "経度": 139.757373, "urltag": "cofficeshinbashi" }, "geometry": { "type": "Point", "coordinates": [ 139.757373, 35.66634931 ] } },
{ "type": "Feature", "properties": { "名称": "大崎ブックカフェ（提携拠点）", "住所": "東京都品川区大崎2-7-11 小澤ビル1F", "緯度": 35.61656862, "経度": 139.7262619, "urltag": "osaki-bookcafe" }, "geometry": { "type": "Point", "coordinates": [ 139.7262619, 35.61656862 ] } }
]
}
